$GPGGA,182432.00,4100.19700,N,07354.39138,W,121120,352,,,,
$GPGGA,182433.00,4100.19697,N,07354.39140,W,121120,352,,,,
$GPGGA,182434.00,4100.19694,N,07354.39142,W,121120,350,,,,
$GPGGA,182435.00,4100.19692,N,07354.39146,W,121120,350,,,,
$GPGGA,182436.00,4100.19692,N,07354.39148,W,121120,350,,,,
$GPGGA,182437.00,4100.19690,N,07354.39151,W,121120,350,,,,
$GPGGA,182438.00,4100.19686,N,07354.39153,W,121120,349,,,,
$GPGGA,182439.00,4100.19684,N,07354.39152,W,121120,349,,,,
$GPGGA,182440.00,4100.19683,N,07354.39150,W,121120,348,,,,
$GPGGA,182441.00,4100.19683,N,07354.39150,W,121120,348,,,,
$GPGGA,182442.00,4100.19680,N,07354.39148,W,121120,346,,,,
$GPGGA,182443.00,4100.19678,N,07354.39146,W,121120,346,,,,
$GPGGA,182444.00,4100.19673,N,07354.39139,W,121120,345,,,,
$GPGGA,182445.00,4100.19669,N,07354.39132,W,121120,345,,,,
$GPGGA,182446.00,4100.19666,N,07354.39129,W,121120,344,,,,
$GPGGA,182447.00,4100.19662,N,07354.39129,W,121120,344,,,,
$GPGGA,182448.00,4100.19658,N,07354.39130,W,121120,343,,,,
$GPGGA,182449.00,4100.19656,N,07354.39127,W,121120,343,,,,
$GPGGA,182450.00,4100.19653,N,07354.39127,W,121120,343,,,,
$GPGGA,182451.00,4100.19647,N,07354.39128,W,121120,343,,,,
$GPGGA,182452.00,4100.19641,N,07354.39128,W,121120,342,,,,
$GPGGA,182453.00,4100.19638,N,07354.39127,W,121120,342,,,,
$GPGGA,182454.00,4100.19638,N,07354.39125,W,121120,340,,,,
$GPGGA,182455.00,4100.19635,N,07354.39127,W,121120,340,,,,
$GPGGA,182456.00,4100.19631,N,07354.39129,W,121120,339,,,,
$GPGGA,182457.00,4100.19627,N,07354.39131,W,121120,339,,,,
$GPGGA,182458.00,4100.19623,N,07354.39133,W,121120,336,,,,
$GPGGA,182459.00,4100.19620,N,07354.39140,W,121120,336,,,,
$GPGGA,182500.00,4100.19618,N,07354.39144,W,121120,335,,,,
$GPGGA,182501.00,4100.19617,N,07354.39147,W,121120,335,,,,
$GPGGA,182502.00,4100.19613,N,07354.39154,W,121120,333,,,,
$GPGGA,182503.00,4100.19610,N,07354.39156,W,121120,333,,,,
$GPGGA,182504.00,4100.19608,N,07354.39158,W,121120,331,,,,
$GPGGA,182505.00,4100.19605,N,07354.39158,W,121120,331,,,,
$GPGGA,182506.00,4100.19601,N,07354.39158,W,121120,329,,,,
$GPGGA,182507.00,4100.19600,N,07354.39156,W,121120,329,,,,
$GPGGA,182508.00,4100.19598,N,07354.39155,W,121120,328,,,,
$GPGGA,182509.00,4100.19599,N,07354.39148,W,121120,328,,,,
$GPGGA,182510.00,4100.19601,N,07354.39141,W,121120,327,,,,
$GPGGA,182511.00,4100.19601,N,07354.39136,W,121120,327,,,,
$GPGGA,182512.00,4100.19603,N,07354.39131,W,121120,326,,,,
$GPGGA,182513.00,4100.19604,N,07354.39124,W,121120,326,,,,
$GPGGA,182514.00,4100.19607,N,07354.39116,W,121120,325,,,,
$GPGGA,182515.00,4100.19610,N,07354.39106,W,121120,325,,,,
$GPGGA,182516.00,4100.19612,N,07354.39100,W,121120,324,,,,
$GPGGA,182517.00,4100.19615,N,07354.39093,W,121120,324,,,,
$GPGGA,182518.00,4100.19615,N,07354.39087,W,121120,322,,,,
$GPGGA,182519.00,4100.19615,N,07354.39080,W,121120,322,,,,
$GPGGA,182520.00,4100.19617,N,07354.39074,W,121120,320,,,,
$GPGGA,182521.00,4100.19616,N,07354.39075,W,121120,320,,,,
$GPGGA,182522.00,4100.19615,N,07354.39075,W,121120,319,,,,
$GPGGA,182523.00,4100.19614,N,07354.39076,W,121120,319,,,,
$GPGGA,182524.00,4100.19614,N,07354.39074,W,121120,319,,,,
$GPGGA,182525.00,4100.19612,N,07354.39073,W,121120,319,,,,
$GPGGA,182526.00,4100.19611,N,07354.39071,W,121120,316,,,,
$GPGGA,182527.00,4100.19608,N,07354.39072,W,121120,316,,,,
$GPGGA,182528.00,4100.19606,N,07354.39074,W,121120,314,,,,
$GPGGA,182529.00,4100.19603,N,07354.39074,W,121120,314,,,,
$GPGGA,182530.00,4100.19600,N,07354.39073,W,121120,314,,,,
$GPGGA,182531.00,4100.19597,N,07354.39069,W,121120,314,,,,
$GPGGA,182532.00,4100.19595,N,07354.39067,W,121120,312,,,,
$GPGGA,182533.00,4100.19590,N,07354.39064,W,121120,312,,,,
$GPGGA,182534.00,4100.19587,N,07354.39064,W,121120,311,,,,
$GPGGA,182535.00,4100.19582,N,07354.39061,W,121120,311,,,,
$GPGGA,182536.00,4100.19579,N,07354.39061,W,121120,309,,,,
$GPGGA,182537.00,4100.19575,N,07354.39056,W,121120,309,,,,
$GPGGA,182538.00,4100.19572,N,07354.39054,W,121120,308,,,,
$GPGGA,182539.00,4100.19569,N,07354.39051,W,121120,308,,,,
$GPGGA,182540.00,4100.19566,N,07354.39051,W,121120,307,,,,
$GPGGA,182541.00,4100.19563,N,07354.39050,W,121120,307,,,,
$GPGGA,182542.00,4100.19560,N,07354.39048,W,121120,306,,,,
$GPGGA,182543.00,4100.19556,N,07354.39046,W,121120,306,,,,
$GPGGA,182544.00,4100.19552,N,07354.39045,W,121120,303,,,,
$GPGGA,182545.00,4100.19548,N,07354.39042,W,121120,303,,,,
$GPGGA,182546.00,4100.19544,N,07354.39042,W,121120,302,,,,
$GPGGA,182547.00,4100.19541,N,07354.39042,W,121120,302,,,,
$GPGGA,182548.00,4100.19538,N,07354.39040,W,121120,301,,,,
$GPGGA,182549.00,4100.19535,N,07354.39038,W,121120,301,,,,
$GPGGA,182550.00,4100.19533,N,07354.39039,W,121120,299,,,,
$GPGGA,182551.00,4100.19531,N,07354.39038,W,121120,299,,,,
$GPGGA,182552.00,4100.19528,N,07354.39040,W,121120,297,,,,
$GPGGA,182553.00,4100.19526,N,07354.39043,W,121120,297,,,,
$GPGGA,182554.00,4100.19524,N,07354.39049,W,121120,296,,,,
$GPGGA,182555.00,4100.19521,N,07354.39052,W,121120,296,,,,
$GPGGA,182556.00,4100.19519,N,07354.39055,W,121120,294,,,,
$GPGGA,182557.00,4100.19517,N,07354.39058,W,121120,294,,,,
$GPGGA,182558.00,4100.19513,N,07354.39062,W,121120,293,,,,
$GPGGA,182559.00,4100.19511,N,07354.39067,W,121120,293,,,,
$GPGGA,182600.00,4100.19508,N,07354.39070,W,121120,293,,,,
$GPGGA,182601.00,4100.19504,N,07354.39072,W,121120,293,,,,
$GPGGA,182602.00,4100.19501,N,07354.39079,W,121120,293,,,,
$GPGGA,182603.00,4100.19496,N,07354.39079,W,121120,293,,,,
$GPGGA,182604.00,4100.19491,N,07354.39075,W,121120,293,,,,
$GPGGA,182605.00,4100.19488,N,07354.39070,W,121120,293,,,,
$GPGGA,182606.00,4100.19484,N,07354.39069,W,121120,292,,,,
$GPGGA,182607.00,4100.19481,N,07354.39070,W,121120,292,,,,
$GPGGA,182608.00,4100.19478,N,07354.39072,W,121120,292,,,,
$GPGGA,182609.00,4100.19474,N,07354.39075,W,121120,292,,,,
$GPGGA,182610.00,4100.19468,N,07354.39081,W,121120,293,,,,
$GPGGA,182611.00,4100.19464,N,07354.39088,W,121120,293,,,,
$GPGGA,182612.00,4100.19459,N,07354.39091,W,121120,294,,,,
$GPGGA,182613.00,4100.19455,N,07354.39096,W,121120,294,,,,
$GPGGA,182614.00,4100.19451,N,07354.39101,W,121120,298,,,,
$GPGGA,182615.00,4100.19446,N,07354.39103,W,121120,298,,,,
$GPGGA,182616.00,4100.19442,N,07354.39107,W,121120,301,,,,
$GPGGA,182617.00,4100.19438,N,07354.39109,W,121120,301,,,,
$GPGGA,182618.00,4100.19434,N,07354.39111,W,121120,303,,,,
$GPGGA,182619.00,4100.19430,N,07354.39112,W,121120,303,,,,
$GPGGA,182620.00,4100.19428,N,07354.39112,W,121120,307,,,,
$GPGGA,182621.00,4100.19425,N,07354.39114,W,121120,307,,,,
$GPGGA,182622.00,4100.19421,N,07354.39116,W,121120,307,,,,
$GPGGA,182623.00,4100.19419,N,07354.39118,W,121120,307,,,,
$GPGGA,182624.00,4100.19418,N,07354.39117,W,121120,307,,,,
$GPGGA,182625.00,4100.19416,N,07354.39118,W,121120,307,,,,
$GPGGA,182626.00,4100.19414,N,07354.39118,W,121120,307,,,,
$GPGGA,182627.00,4100.19414,N,07354.39118,W,121120,307,,,,
$GPGGA,182628.00,4100.19412,N,07354.39118,W,121120,308,,,,
$GPGGA,182629.00,4100.19411,N,07354.39120,W,121120,308,,,,
$GPGGA,182630.00,4100.19408,N,07354.39118,W,121120,308,,,,
$GPGGA,182631.00,4100.19406,N,07354.39117,W,121120,308,,,,
$GPGGA,182632.00,4100.19405,N,07354.39118,W,121120,308,,,,
$GPGGA,182633.00,4100.19402,N,07354.39117,W,121120,308,,,,
$GPGGA,182634.00,4100.19398,N,07354.39118,W,121120,308,,,,
$GPGGA,182635.00,4100.19396,N,07354.39118,W,121120,308,,,,
$GPGGA,182636.00,4100.19394,N,07354.39115,W,121120,308,,,,
$GPGGA,182637.00,4100.19390,N,07354.39112,W,121120,308,,,,
$GPGGA,182638.00,4100.19387,N,07354.39109,W,121120,307,,,,
$GPGGA,182639.00,4100.19383,N,07354.39106,W,121120,307,,,,
$GPGGA,182640.00,4100.19380,N,07354.39105,W,121120,307,,,,
$GPGGA,182641.00,4100.19376,N,07354.39103,W,121120,307,,,,
$GPGGA,182642.00,4100.19372,N,07354.39101,W,121120,307,,,,
$GPGGA,182643.00,4100.19368,N,07354.39100,W,121120,307,,,,
$GPGGA,182644.00,4100.19364,N,07354.39100,W,121120,307,,,,
$GPGGA,182645.00,4100.19361,N,07354.39102,W,121120,307,,,,
$GPGGA,182646.00,4100.19357,N,07354.39104,W,121120,307,,,,
$GPGGA,182647.00,4100.19356,N,07354.39106,W,121120,307,,,,
$GPGGA,182648.00,4100.19353,N,07354.39109,W,121120,306,,,,
$GPGGA,182649.00,4100.19352,N,07354.39111,W,121120,306,,,,
$GPGGA,182650.00,4100.19350,N,07354.39115,W,121120,306,,,,
$GPGGA,182651.00,4100.19346,N,07354.39117,W,121120,306,,,,
$GPGGA,182652.00,4100.19342,N,07354.39122,W,121120,305,,,,
$GPGGA,182653.00,4100.19340,N,07354.39126,W,121120,305,,,,
$GPGGA,182654.00,4100.19338,N,07354.39128,W,121120,305,,,,
$GPGGA,182655.00,4100.19337,N,07354.39131,W,121120,305,,,,
$GPGGA,182656.00,4100.19334,N,07354.39133,W,121120,304,,,,
$GPGGA,182657.00,4100.19331,N,07354.39135,W,121120,304,,,,
$GPGGA,182658.00,4100.19327,N,07354.39137,W,121120,303,,,,
$GPGGA,182659.00,4100.19323,N,07354.39139,W,121120,303,,,,
$GPGGA,182700.00,4100.19316,N,07354.39141,W,121120,303,,,,
$GPGGA,182701.00,4100.19311,N,07354.39142,W,121120,303,,,,
$GPGGA,182702.00,4100.19305,N,07354.39143,W,121120,302,,,,
$GPGGA,182703.00,4100.19298,N,07354.39144,W,121120,302,,,,
$GPGGA,182704.00,4100.19293,N,07354.39144,W,121120,302,,,,
$GPGGA,182705.00,4100.19288,N,07354.39144,W,121120,302,,,,
$GPGGA,182706.00,4100.19284,N,07354.39145,W,121120,300,,,,
$GPGGA,182707.00,4100.19279,N,07354.39144,W,121120,300,,,,
$GPGGA,182708.00,4100.19277,N,07354.39142,W,121120,299,,,,
$GPGGA,182709.00,4100.19275,N,07354.39141,W,121120,299,,,,
$GPGGA,182710.00,4100.19273,N,07354.39140,W,121120,299,,,,
$GPGGA,182711.00,4100.19272,N,07354.39138,W,121120,299,,,,
$GPGGA,182712.00,4100.19270,N,07354.39138,W,121120,298,,,,
$GPGGA,182713.00,4100.19269,N,07354.39141,W,121120,298,,,,
$GPGGA,182714.00,4100.19270,N,07354.39144,W,121120,298,,,,
$GPGGA,182715.00,4100.19268,N,07354.39147,W,121120,298,,,,
$GPGGA,182716.00,4100.19266,N,07354.39151,W,121120,297,,,,
$GPGGA,182717.00,4100.19265,N,07354.39153,W,121120,297,,,,
$GPGGA,182718.00,4100.19265,N,07354.39157,W,121120,296,,,,
$GPGGA,182719.00,4100.19266,N,07354.39157,W,121120,296,,,,
$GPGGA,182720.00,4100.19266,N,07354.39159,W,121120,296,,,,
$GPGGA,182721.00,4100.19266,N,07354.39158,W,121120,296,,,,
$GPGGA,182722.00,4100.19263,N,07354.39157,W,121120,295,,,,
$GPGGA,182723.00,4100.19262,N,07354.39158,W,121120,295,,,,
$GPGGA,182724.00,4100.19258,N,07354.39158,W,121120,295,,,,
$GPGGA,182725.00,4100.19255,N,07354.39162,W,121120,295,,,,
$GPGGA,182726.00,4100.19253,N,07354.39165,W,121120,294,,,,
$GPGGA,182727.00,4100.19251,N,07354.39169,W,121120,294,,,,
$GPGGA,182728.00,4100.19249,N,07354.39171,W,121120,293,,,,
$GPGGA,182729.00,4100.19247,N,07354.39174,W,121120,293,,,,
$GPGGA,182730.00,4100.19238,N,07354.39174,W,121120,292,,,,
$GPGGA,182731.00,4100.19237,N,07354.39174,W,121120,292,,,,
$GPGGA,182732.00,4100.19237,N,07354.39177,W,121120,292,,,,
$GPGGA,182733.00,4100.19239,N,07354.39179,W,121120,292,,,,
$GPGGA,182734.00,4100.19240,N,07354.39181,W,121120,292,,,,
$GPGGA,182735.00,4100.19236,N,07354.39185,W,121120,292,,,,
$GPGGA,182736.00,4100.19236,N,07354.39186,W,121120,292,,,,
$GPGGA,182737.00,4100.19235,N,07354.39187,W,121120,292,,,,
$GPGGA,182738.00,4100.19234,N,07354.39189,W,121120,292,,,,
$GPGGA,182739.00,4100.19234,N,07354.39190,W,121120,292,,,,
$GPGGA,182740.00,4100.19232,N,07354.39193,W,121120,292,,,,
$GPGGA,182741.00,4100.19231,N,07354.39194,W,121120,292,,,,
$GPGGA,182742.00,4100.19231,N,07354.39197,W,121120,292,,,,
$GPGGA,182743.00,4100.19234,N,07354.39200,W,121120,292,,,,
$GPGGA,182744.00,4100.19234,N,07354.39199,W,121120,292,,,,
$GPGGA,182745.00,4100.19235,N,07354.39199,W,121120,292,,,,
$GPGGA,182746.00,4100.19239,N,07354.39202,W,121120,292,,,,
$GPGGA,182747.00,4100.19245,N,07354.39205,W,121120,292,,,,
$GPGGA,182748.00,4100.19247,N,07354.39205,W,121120,292,,,,
$GPGGA,182749.00,4100.19252,N,07354.39206,W,121120,292,,,,
$GPGGA,182750.00,4100.19255,N,07354.39204,W,121120,293,,,,
$GPGGA,182751.00,4100.19258,N,07354.39201,W,121120,293,,,,
$GPGGA,182752.00,4100.19259,N,07354.39197,W,121120,292,,,,
$GPGGA,182753.00,4100.19259,N,07354.39198,W,121120,292,,,,
$GPGGA,182754.00,4100.19262,N,07354.39203,W,121120,292,,,,
$GPGGA,182755.00,4100.19264,N,07354.39209,W,121120,292,,,,
$GPGGA,182756.00,4100.19265,N,07354.39215,W,121120,293,,,,
$GPGGA,182757.00,4100.19266,N,07354.39221,W,121120,293,,,,
$GPGGA,182758.00,4100.19267,N,07354.39228,W,121120,293,,,,
$GPGGA,182759.00,4100.19269,N,07354.39237,W,121120,293,,,,
$GPGGA,182800.00,4100.19269,N,07354.39244,W,121120,293,,,,
$GPGGA,182801.00,4100.19270,N,07354.39250,W,121120,293,,,,
$GPGGA,182802.00,4100.19268,N,07354.39257,W,121120,293,,,,
$GPGGA,182803.00,4100.19268,N,07354.39264,W,121120,293,,,,
$GPGGA,182804.00,4100.19264,N,07354.39273,W,121120,292,,,,
$GPGGA,182805.00,4100.19259,N,07354.39282,W,121120,292,,,,
$GPGGA,182806.00,4100.19257,N,07354.39291,W,121120,292,,,,
$GPGGA,182807.00,4100.19256,N,07354.39301,W,121120,292,,,,
$GPGGA,182808.00,4100.19257,N,07354.39307,W,121120,291,,,,
$GPGGA,182809.00,4100.19254,N,07354.39310,W,121120,291,,,,
$GPGGA,182810.00,4100.19246,N,07354.39314,W,121120,291,,,,
$GPGGA,182811.00,4100.19239,N,07354.39318,W,121120,291,,,,
$GPGGA,182812.00,4100.19232,N,07354.39324,W,121120,290,,,,
$GPGGA,182813.00,4100.19227,N,07354.39330,W,121120,290,,,,
$GPGGA,182814.00,4100.19219,N,07354.39336,W,121120,289,,,,
$GPGGA,182815.00,4100.19213,N,07354.39337,W,121120,289,,,,
$GPGGA,182816.00,4100.19206,N,07354.39342,W,121120,288,,,,
$GPGGA,182817.00,4100.19200,N,07354.39345,W,121120,288,,,,
$GPGGA,182818.00,4100.19196,N,07354.39350,W,121120,287,,,,
$GPGGA,182819.00,4100.19192,N,07354.39355,W,121120,287,,,,
$GPGGA,182820.00,4100.19189,N,07354.39360,W,121120,286,,,,
$GPGGA,182821.00,4100.19184,N,07354.39361,W,121120,286,,,,
$GPGGA,182822.00,4100.19180,N,07354.39362,W,121120,284,,,,
$GPGGA,182823.00,4100.19175,N,07354.39364,W,121120,284,,,,
$GPGGA,182824.00,4100.19171,N,07354.39364,W,121120,283,,,,
$GPGGA,182825.00,4100.19170,N,07354.39364,W,121120,283,,,,
$GPGGA,182826.00,4100.19167,N,07354.39363,W,121120,282,,,,
$GPGGA,182827.00,4100.19162,N,07354.39361,W,121120,282,,,,
$GPGGA,182828.00,4100.19156,N,07354.39359,W,121120,282,,,,
$GPGGA,182829.00,4100.19151,N,07354.39356,W,121120,282,,,,
$GPGGA,182830.00,4100.19146,N,07354.39353,W,121120,281,,,,
$GPGGA,182831.00,4100.19141,N,07354.39353,W,121120,281,,,,
$GPGGA,182832.00,4100.19136,N,07354.39353,W,121120,280,,,,
$GPGGA,182833.00,4100.19134,N,07354.39354,W,121120,280,,,,
$GPGGA,182834.00,4100.19130,N,07354.39356,W,121120,279,,,,
$GPGGA,182835.00,4100.19128,N,07354.39357,W,121120,279,,,,
$GPGGA,182836.00,4100.19128,N,07354.39358,W,121120,279,,,,
$GPGGA,182837.00,4100.19128,N,07354.39361,W,121120,279,,,,
$GPGGA,182838.00,4100.19130,N,07354.39363,W,121120,279,,,,
$GPGGA,182839.00,4100.19129,N,07354.39362,W,121120,278,,,,
$GPGGA,182840.00,4100.19126,N,07354.39359,W,121120,278,,,,
$GPGGA,182841.00,4100.19123,N,07354.39358,W,121120,278,,,,
$GPGGA,182842.00,4100.19119,N,07354.39356,W,121120,278,,,,
$GPGGA,182843.00,4100.19116,N,07354.39351,W,121120,277,,,,
$GPGGA,182844.00,4100.19120,N,07354.39350,W,121120,277,,,,
$GPGGA,182845.00,4100.19120,N,07354.39346,W,121120,277,,,,
$GPGGA,182846.00,4100.19121,N,07354.39343,W,121120,277,,,,
$GPGGA,182847.00,4100.19120,N,07354.39342,W,121120,276,,,,
$GPGGA,182848.00,4100.19120,N,07354.39340,W,121120,276,,,,
$GPGGA,182849.00,4100.19122,N,07354.39339,W,121120,275,,,,
$GPGGA,182850.00,4100.19127,N,07354.39339,W,121120,275,,,,
$GPGGA,182851.00,4100.19132,N,07354.39338,W,121120,275,,,,
$GPGGA,182852.00,4100.19135,N,07354.39337,W,121120,275,,,,
$GPGGA,182853.00,4100.19140,N,07354.39336,W,121120,274,,,,
$GPGGA,182854.00,4100.19147,N,07354.39337,W,121120,274,,,,
$GPGGA,182855.00,4100.19155,N,07354.39338,W,121120,274,,,,
$GPGGA,182856.00,4100.19160,N,07354.39338,W,121120,274,,,,
$GPGGA,182857.00,4100.19167,N,07354.39339,W,121120,274,,,,
$GPGGA,182858.00,4100.19172,N,07354.39339,W,121120,4294967295,,,,
$GPGGA,182900.00,4100.19185,N,07354.39337,W,121120,274,,,,
$GPGGA,182901.00,4100.19187,N,07354.39336,W,121120,274,,,,
$GPGGA,182902.00,4100.19188,N,07354.39333,W,121120,274,,,,
$GPGGA,182903.00,4100.19194,N,07354.39332,W,121120,274,,,,
$GPGGA,182904.00,4100.19202,N,07354.39332,W,121120,274,,,,
$GPGGA,182905.00,4100.19208,N,07354.39329,W,121120,274,,,,
$GPGGA,182906.00,4100.19214,N,07354.39327,W,121120,274,,,,
$GPGGA,182907.00,4100.19220,N,07354.39321,W,121120,273,,,,
$GPGGA,182908.00,4100.19229,N,07354.39318,W,121120,273,,,,
$GPGGA,182909.00,4100.19236,N,07354.39313,W,121120,273,,,,
$GPGGA,182910.00,4100.19245,N,07354.39308,W,121120,273,,,,
$GPGGA,182911.00,4100.19251,N,07354.39299,W,121120,273,,,,
$GPGGA,182912.00,4100.19261,N,07354.39292,W,121120,273,,,,
$GPGGA,182913.00,4100.19270,N,07354.39282,W,121120,273,,,,
$GPGGA,182914.00,4100.19277,N,07354.39275,W,121120,273,,,,
$GPGGA,182915.00,4100.19288,N,07354.39271,W,121120,274,,,,
$GPGGA,182916.00,4100.19294,N,07354.39263,W,121120,274,,,,
$GPGGA,182917.00,4100.19301,N,07354.39251,W,121120,274,,,,
$GPGGA,182918.00,4100.19308,N,07354.39238,W,121120,274,,,,
$GPGGA,182919.00,4100.19315,N,07354.39225,W,121120,274,,,,
$GPGGA,182920.00,4100.19319,N,07354.39209,W,121120,274,,,,
$GPGGA,182921.00,4100.19323,N,07354.39192,W,121120,274,,,,
$GPGGA,182922.00,4100.19326,N,07354.39174,W,121120,274,,,,
$GPGGA,182923.00,4100.19327,N,07354.39161,W,121120,274,,,,
$GPGGA,182924.00,4100.19329,N,07354.39149,W,121120,4294967295,,,,
$GPGGA,182926.00,4100.19332,N,07354.39124,W,121120,274,,,,
$GPGGA,182927.00,4100.19334,N,07354.39114,W,121120,274,,,,
$GPGGA,182928.00,4100.19335,N,07354.39105,W,121120,274,,,,
$GPGGA,182929.00,4100.19336,N,07354.39094,W,121120,274,,,,
$GPGGA,182930.00,4100.19335,N,07354.39082,W,121120,274,,,,
$GPGGA,182931.00,4100.19333,N,07354.39070,W,121120,274,,,,
$GPGGA,182932.00,4100.19333,N,07354.39060,W,121120,274,,,,
$GPGGA,182933.00,4100.19333,N,07354.39049,W,121120,274,,,,
$GPGGA,182934.00,4100.19333,N,07354.39041,W,121120,4294967295,,,,
$GPGGA,182936.00,4100.19333,N,07354.39027,W,121120,274,,,,
$GPGGA,182937.00,4100.19332,N,07354.39019,W,121120,274,,,,
$GPGGA,182938.00,4100.19334,N,07354.39012,W,121120,274,,,,
$GPGGA,182939.00,4100.19337,N,07354.39005,W,121120,274,,,,
$GPGGA,182940.00,4100.19339,N,07354.39000,W,121120,274,,,,
$GPGGA,182941.00,4100.19343,N,07354.38993,W,121120,274,,,,
$GPGGA,182942.00,4100.19349,N,07354.38986,W,121120,274,,,,
$GPGGA,182943.00,4100.19353,N,07354.38978,W,121120,274,,,,
$GPGGA,182944.00,4100.19361,N,07354.38974,W,121120,274,,,,
$GPGGA,182945.00,4100.19366,N,07354.38970,W,121120,274,,,,
$GPGGA,182946.00,4100.19369,N,07354.38967,W,121120,274,,,,
$GPGGA,182947.00,4100.19373,N,07354.38964,W,121120,274,,,,
$GPGGA,182948.00,4100.19377,N,07354.38959,W,121120,274,,,,
$GPGGA,182949.00,4100.19377,N,07354.38958,W,121120,274,,,,
$GPGGA,182950.00,4100.19376,N,07354.38958,W,121120,274,,,,
$GPGGA,182951.00,4100.19378,N,07354.38958,W,121120,275,,,,
$GPGGA,182952.00,4100.19379,N,07354.38963,W,121120,275,,,,
$GPGGA,182953.00,4100.19378,N,07354.38967,W,121120,275,,,,
$GPGGA,182954.00,4100.19376,N,07354.38971,W,121120,275,,,,
$GPGGA,182955.00,4100.19372,N,07354.38976,W,121120,275,,,,
$GPGGA,182956.00,4100.19371,N,07354.38982,W,121120,275,,,,
$GPGGA,182957.00,4100.19370,N,07354.38985,W,121120,275,,,,
$GPGGA,182958.00,4100.19371,N,07354.38987,W,121120,275,,,,
$GPGGA,182959.00,4100.19370,N,07354.38993,W,121120,275,,,,
$GPGGA,183000.00,4100.19369,N,07354.38998,W,121120,275,,,,
$GPGGA,183001.00,4100.19368,N,07354.39000,W,121120,275,,,,
$GPGGA,183002.00,4100.19368,N,07354.39004,W,121120,275,,,,
$GPGGA,183003.00,4100.19369,N,07354.39007,W,121120,275,,,,
$GPGGA,183004.00,4100.19371,N,07354.39009,W,121120,275,,,,
$GPGGA,183005.00,4100.19371,N,07354.39012,W,121120,276,,,,
$GPGGA,183006.00,4100.19370,N,07354.39018,W,121120,276,,,,
$GPGGA,183007.00,4100.19368,N,07354.39020,W,121120,276,,,,
$GPGGA,183008.00,4100.19366,N,07354.39024,W,121120,276,,,,
$GPGGA,183009.00,4100.19362,N,07354.39026,W,121120,276,,,,
$GPGGA,183010.00,4100.19362,N,07354.39023,W,121120,276,,,,
$GPGGA,183011.00,4100.19362,N,07354.39024,W,121120,276,,,,
$GPGGA,183012.00,4100.19363,N,07354.39024,W,121120,276,,,,
$GPGGA,183013.00,4100.19363,N,07354.39021,W,121120,276,,,,
$GPGGA,183014.00,4100.19364,N,07354.39017,W,121120,276,,,,
$GPGGA,183015.00,4100.19363,N,07354.39015,W,121120,277,,,,
$GPGGA,183016.00,4100.19364,N,07354.39010,W,121120,277,,,,
$GPGGA,183017.00,4100.19363,N,07354.39006,W,121120,277,,,,
$GPGGA,183018.00,4100.19362,N,07354.39003,W,121120,277,,,,
$GPGGA,183019.00,4100.19364,N,07354.38999,W,121120,277,,,,
$GPGGA,183020.00,4100.19367,N,07354.38992,W,121120,277,,,,
$GPGGA,183021.00,4100.19370,N,07354.38988,W,121120,277,,,,
$GPGGA,183022.00,4100.19373,N,07354.38987,W,121120,277,,,,
$GPGGA,183023.00,4100.19376,N,07354.38986,W,121120,277,,,,
$GPGGA,183024.00,4100.19383,N,07354.38981,W,121120,277,,,,
$GPGGA,183025.00,4100.19390,N,07354.38978,W,121120,277,,,,
$GPGGA,183026.00,4100.19392,N,07354.38978,W,121120,277,,,,
$GPGGA,183027.00,4100.19394,N,07354.38980,W,121120,277,,,,
$GPGGA,183028.00,4100.19396,N,07354.38981,W,121120,277,,,,
$GPGGA,183029.00,4100.19399,N,07354.38980,W,121120,277,,,,
$GPGGA,183030.00,4100.19403,N,07354.38983,W,121120,277,,,,
$GPGGA,183031.00,4100.19404,N,07354.38987,W,121120,277,,,,
$GPGGA,183032.00,4100.19406,N,07354.38991,W,121120,277,,,,
$GPGGA,183033.00,4100.19409,N,07354.38993,W,121120,277,,,,
$GPGGA,183034.00,4100.19415,N,07354.38998,W,121120,277,,,,
$GPGGA,183035.00,4100.19419,N,07354.39002,W,121120,277,,,,
$GPGGA,183036.00,4100.19420,N,07354.39004,W,121120,277,,,,
$GPGGA,183037.00,4100.19421,N,07354.39006,W,121120,277,,,,
$GPGGA,183038.00,4100.19421,N,07354.39010,W,121120,277,,,,
$GPGGA,183039.00,4100.19423,N,07354.39014,W,121120,277,,,,
$GPGGA,183040.00,4100.19424,N,07354.39019,W,121120,277,,,,
$GPGGA,183041.00,4100.19425,N,07354.39022,W,121120,277,,,,
$GPGGA,183042.00,4100.19425,N,07354.39027,W,121120,277,,,,
$GPGGA,183043.00,4100.19427,N,07354.39032,W,121120,277,,,,
$GPGGA,183044.00,4100.19427,N,07354.39039,W,121120,277,,,,
$GPGGA,183045.00,4100.19429,N,07354.39046,W,121120,277,,,,
$GPGGA,183046.00,4100.19430,N,07354.39052,W,121120,277,,,,
$GPGGA,183047.00,4100.19431,N,07354.39061,W,121120,277,,,,
$GPGGA,183048.00,4100.19429,N,07354.39067,W,121120,277,,,,
$GPGGA,183049.00,4100.19428,N,07354.39073,W,121120,277,,,,
$GPGGA,183050.00,4100.19428,N,07354.39077,W,121120,277,,,,
$GPGGA,183051.00,4100.19429,N,07354.39082,W,121120,277,,,,
$GPGGA,183052.00,4100.19430,N,07354.39086,W,121120,277,,,,
$GPGGA,183053.00,4100.19431,N,07354.39091,W,121120,277,,,,
$GPGGA,183054.00,4100.19431,N,07354.39095,W,121120,277,,,,
$GPGGA,183055.00,4100.19433,N,07354.39098,W,121120,277,,,,
$GPGGA,183056.00,4100.19434,N,07354.39098,W,121120,277,,,,
$GPGGA,183057.00,4100.19437,N,07354.39099,W,121120,277,,,,
$GPGGA,183058.00,4100.19440,N,07354.39097,W,121120,277,,,,
$GPGGA,183059.00,4100.19444,N,07354.39095,W,121120,277,,,,
$GPGGA,183100.00,4100.19447,N,07354.39095,W,121120,277,,,,
$GPGGA,183101.00,4100.19451,N,07354.39096,W,121120,277,,,,
$GPGGA,183102.00,4100.19452,N,07354.39094,W,121120,277,,,,
$GPGGA,183103.00,4100.19453,N,07354.39094,W,121120,278,,,,
$GPGGA,183104.00,4100.19453,N,07354.39093,W,121120,278,,,,
$GPGGA,183105.00,4100.19452,N,07354.39087,W,121120,278,,,,
$GPGGA,183106.00,4100.19452,N,07354.39081,W,121120,278,,,,
$GPGGA,183107.00,4100.19453,N,07354.39076,W,121120,278,,,,
$GPGGA,183108.00,4100.19454,N,07354.39071,W,121120,278,,,,
$GPGGA,183109.00,4100.19454,N,07354.39067,W,121120,278,,,,
$GPGGA,183110.00,4100.19454,N,07354.39064,W,121120,278,,,,
$GPGGA,183111.00,4100.19452,N,07354.39059,W,121120,278,,,,
$GPGGA,183112.00,4100.19453,N,07354.39056,W,121120,278,,,,
$GPGGA,183113.00,4100.19453,N,07354.39050,W,121120,278,,,,
$GPGGA,183114.00,4100.19455,N,07354.39047,W,121120,278,,,,
$GPGGA,183115.00,4100.19459,N,07354.39044,W,121120,278,,,,
$GPGGA,183116.00,4100.19461,N,07354.39041,W,121120,278,,,,
$GPGGA,183117.00,4100.19462,N,07354.39038,W,121120,278,,,,
$GPGGA,183118.00,4100.19463,N,07354.39037,W,121120,278,,,,
$GPGGA,183119.00,4100.19465,N,07354.39038,W,121120,278,,,,
$GPGGA,183120.00,4100.19465,N,07354.39039,W,121120,278,,,,
$GPGGA,183121.00,4100.19465,N,07354.39044,W,121120,278,,,,
$GPGGA,183122.00,4100.19464,N,07354.39050,W,121120,278,,,,
$GPGGA,183123.00,4100.19465,N,07354.39054,W,121120,278,,,,
$GPGGA,183124.00,4100.19464,N,07354.39059,W,121120,278,,,,
$GPGGA,183125.00,4100.19463,N,07354.39062,W,121120,278,,,,
$GPGGA,183126.00,4100.19463,N,07354.39066,W,121120,278,,,,
$GPGGA,183127.00,4100.19461,N,07354.39070,W,121120,279,,,,
$GPGGA,183128.00,4100.19461,N,07354.39070,W,121120,279,,,,
$GPGGA,183129.00,4100.19463,N,07354.39068,W,121120,279,,,,
$GPGGA,183130.00,4100.19462,N,07354.39066,W,121120,279,,,,
$GPGGA,183131.00,4100.19464,N,07354.39064,W,121120,279,,,,
$GPGGA,183132.00,4100.19463,N,07354.39064,W,121120,279,,,,
$GPGGA,183133.00,4100.19463,N,07354.39063,W,121120,279,,,,
$GPGGA,183134.00,4100.19465,N,07354.39065,W,121120,279,,,,
$GPGGA,183135.00,4100.19468,N,07354.39068,W,121120,279,,,,
$GPGGA,183136.00,4100.19473,N,07354.39070,W,121120,279,,,,
$GPGGA,183137.00,4100.19478,N,07354.39074,W,121120,279,,,,
$GPGGA,183138.00,4100.19483,N,07354.39077,W,121120,279,,,,
$GPGGA,183139.00,4100.19488,N,07354.39078,W,121120,278,,,,
$GPGGA,183140.00,4100.19494,N,07354.39079,W,121120,278,,,,
$GPGGA,183141.00,4100.19497,N,07354.39079,W,121120,279,,,,
$GPGGA,183142.00,4100.19502,N,07354.39078,W,121120,279,,,,
$GPGGA,183143.00,4100.19508,N,07354.39077,W,121120,278,,,,
$GPGGA,183144.00,4100.19510,N,07354.39082,W,121120,278,,,,
$GPGGA,183145.00,4100.19511,N,07354.39088,W,121120,278,,,,
$GPGGA,183146.00,4100.19512,N,07354.39093,W,121120,278,,,,
$GPGGA,183147.00,4100.19513,N,07354.39097,W,121120,278,,,,
$GPGGA,183148.00,4100.19514,N,07354.39103,W,121120,278,,,,
$GPGGA,183149.00,4100.19514,N,07354.39105,W,121120,278,,,,
$GPGGA,183150.00,4100.19515,N,07354.39106,W,121120,278,,,,
$GPGGA,183151.00,4100.19519,N,07354.39103,W,121120,278,,,,
$GPGGA,183152.00,4100.19520,N,07354.39101,W,121120,278,,,,
$GPGGA,183153.00,4100.19521,N,07354.39101,W,121120,278,,,,
$GPGGA,183154.00,4100.19524,N,07354.39102,W,121120,278,,,,
$GPGGA,183155.00,4100.19523,N,07354.39107,W,121120,278,,,,
$GPGGA,183156.00,4100.19525,N,07354.39110,W,121120,278,,,,
$GPGGA,183157.00,4100.19529,N,07354.39110,W,121120,278,,,,
$GPGGA,183158.00,4100.19530,N,07354.39114,W,121120,278,,,,
$GPGGA,183159.00,4100.19532,N,07354.39115,W,121120,278,,,,
$GPGGA,183200.00,4100.19533,N,07354.39119,W,121120,278,,,,
$GPGGA,183201.00,4100.19533,N,07354.39123,W,121120,278,,,,
$GPGGA,183202.00,4100.19536,N,07354.39124,W,121120,278,,,,
$GPGGA,183203.00,4100.19537,N,07354.39127,W,121120,278,,,,
$GPGGA,183204.00,4100.19540,N,07354.39128,W,121120,278,,,,
$GPGGA,183205.00,4100.19541,N,07354.39129,W,121120,278,,,,
$GPGGA,183206.00,4100.19542,N,07354.39129,W,121120,278,,,,
$GPGGA,183207.00,4100.19541,N,07354.39127,W,121120,278,,,,
$GPGGA,183208.00,4100.19538,N,07354.39128,W,121120,278,,,,
$GPGGA,183209.00,4100.19539,N,07354.39131,W,121120,278,,,,
$GPGGA,183210.00,4100.19543,N,07354.39132,W,121120,278,,,,
$GPGGA,183211.00,4100.19547,N,07354.39137,W,121120,278,,,,
$GPGGA,183212.00,4100.19550,N,07354.39140,W,121120,278,,,,
$GPGGA,183213.00,4100.19553,N,07354.39144,W,121120,278,,,,
$GPGGA,183214.00,4100.19559,N,07354.39145,W,121120,278,,,,
$GPGGA,183215.00,4100.19562,N,07354.39149,W,121120,277,,,,
$GPGGA,183216.00,4100.19567,N,07354.39149,W,121120,277,,,,
$GPGGA,183217.00,4100.19572,N,07354.39148,W,121120,277,,,,
$GPGGA,183218.00,4100.19576,N,07354.39143,W,121120,277,,,,
$GPGGA,183219.00,4100.19580,N,07354.39142,W,121120,277,,,,
$GPGGA,183220.00,4100.19585,N,07354.39141,W,121120,277,,,,
$GPGGA,183221.00,4100.19589,N,07354.39142,W,121120,277,,,,
$GPGGA,183222.00,4100.19597,N,07354.39137,W,121120,277,,,,
$GPGGA,183223.00,4100.19601,N,07354.39132,W,121120,277,,,,
$GPGGA,183224.00,4100.19603,N,07354.39129,W,121120,277,,,,
$GPGGA,183225.00,4100.19608,N,07354.39123,W,121120,276,,,,
$GPGGA,183226.00,4100.19610,N,07354.39119,W,121120,276,,,,
$GPGGA,183227.00,4100.19611,N,07354.39118,W,121120,276,,,,
$GPGGA,183228.00,4100.19610,N,07354.39116,W,121120,276,,,,
$GPGGA,183229.00,4100.19610,N,07354.39110,W,121120,275,,,,
$GPGGA,183230.00,4100.19609,N,07354.39106,W,121120,275,,,,
$GPGGA,183231.00,4100.19608,N,07354.39100,W,121120,275,,,,
$GPGGA,183232.00,4100.19605,N,07354.39098,W,121120,275,,,,
$GPGGA,183233.00,4100.19599,N,07354.39094,W,121120,276,,,,
$GPGGA,183234.00,4100.19596,N,07354.39095,W,121120,276,,,,
$GPGGA,183235.00,4100.19593,N,07354.39098,W,121120,276,,,,
$GPGGA,183236.00,4100.19588,N,07354.39100,W,121120,276,,,,
$GPGGA,183237.00,4100.19584,N,07354.39101,W,121120,276,,,,
$GPGGA,183238.00,4100.19583,N,07354.39098,W,121120,276,,,,
$GPGGA,183239.00,4100.19578,N,07354.39098,W,121120,277,,,,
$GPGGA,183240.00,4100.19574,N,07354.39095,W,121120,277,,,,
$GPGGA,183241.00,4100.19572,N,07354.39091,W,121120,277,,,,
$GPGGA,183242.00,4100.19567,N,07354.39092,W,121120,277,,,,
$GPGGA,183243.00,4100.19560,N,07354.39096,W,121120,277,,,,
$GPGGA,183244.00,4100.19555,N,07354.39095,W,121120,277,,,,
$GPGGA,183245.00,4100.19549,N,07354.39095,W,121120,278,,,,
$GPGGA,183246.00,4100.19544,N,07354.39098,W,121120,278,,,,
$GPGGA,183247.00,4100.19540,N,07354.39100,W,121120,278,,,,
$GPGGA,183248.00,4100.19536,N,07354.39099,W,121120,278,,,,
$GPGGA,183249.00,4100.19533,N,07354.39098,W,121120,278,,,,
$GPGGA,183250.00,4100.19531,N,07354.39097,W,121120,278,,,,
$GPGGA,183251.00,4100.19531,N,07354.39094,W,121120,278,,,,
$GPGGA,183252.00,4100.19529,N,07354.39087,W,121120,278,,,,
$GPGGA,183253.00,4100.19524,N,07354.39082,W,121120,278,,,,
$GPGGA,183254.00,4100.19519,N,07354.39078,W,121120,278,,,,
$GPGGA,183255.00,4100.19514,N,07354.39080,W,121120,278,,,,
$GPGGA,183256.00,4100.19510,N,07354.39075,W,121120,278,,,,
$GPGGA,183257.00,4100.19508,N,07354.39070,W,121120,278,,,,
$GPGGA,183258.00,4100.19506,N,07354.39069,W,121120,278,,,,
$GPGGA,183259.00,4100.19505,N,07354.39068,W,121120,279,,,,
$GPGGA,183300.00,4100.19505,N,07354.39064,W,121120,279,,,,
$GPGGA,183301.00,4100.19504,N,07354.39064,W,121120,279,,,,
$GPGGA,183302.00,4100.19505,N,07354.39064,W,121120,279,,,,
$GPGGA,183303.00,4100.19505,N,07354.39064,W,121120,279,,,,
$GPGGA,183304.00,4100.19506,N,07354.39063,W,121120,279,,,,
$GPGGA,183305.00,4100.19509,N,07354.39061,W,121120,279,,,,
$GPGGA,183306.00,4100.19513,N,07354.39060,W,121120,279,,,,
$GPGGA,183307.00,4100.19513,N,07354.39062,W,121120,278,,,,
$GPGGA,183308.00,4100.19516,N,07354.39064,W,121120,278,,,,
$GPGGA,183309.00,4100.19516,N,07354.39065,W,121120,278,,,,
$GPGGA,183310.00,4100.19518,N,07354.39068,W,121120,278,,,,
$GPGGA,183311.00,4100.19518,N,07354.39070,W,121120,277,,,,
$GPGGA,183312.00,4100.19516,N,07354.39067,W,121120,277,,,,
$GPGGA,183313.00,4100.19515,N,07354.39061,W,121120,277,,,,
$GPGGA,183314.00,4100.19512,N,07354.39058,W,121120,277,,,,
$GPGGA,183315.00,4100.19508,N,07354.39054,W,121120,277,,,,
$GPGGA,183316.00,4100.19506,N,07354.39047,W,121120,277,,,,
$GPGGA,183317.00,4100.19500,N,07354.39038,W,121120,277,,,,
$GPGGA,183318.00,4100.19498,N,07354.39030,W,121120,277,,,,
$GPGGA,183319.00,4100.19494,N,07354.39024,W,121120,276,,,,
$GPGGA,183320.00,4100.19491,N,07354.39018,W,121120,276,,,,
$GPGGA,183321.00,4100.19490,N,07354.39011,W,121120,277,,,,
$GPGGA,183322.00,4100.19489,N,07354.39009,W,121120,277,,,,
$GPGGA,183323.00,4100.19486,N,07354.39009,W,121120,277,,,,
$GPGGA,183324.00,4100.19487,N,07354.39006,W,121120,277,,,,
$GPGGA,183325.00,4100.19487,N,07354.39007,W,121120,277,,,,
$GPGGA,183326.00,4100.19486,N,07354.39007,W,121120,277,,,,
$GPGGA,183327.00,4100.19483,N,07354.39007,W,121120,276,,,,
$GPGGA,183328.00,4100.19481,N,07354.39008,W,121120,276,,,,
$GPGGA,183329.00,4100.19479,N,07354.39010,W,121120,276,,,,
$GPGGA,183330.00,4100.19477,N,07354.39010,W,121120,276,,,,
$GPGGA,183331.00,4100.19477,N,07354.39008,W,121120,275,,,,
$GPGGA,183332.00,4100.19477,N,07354.39008,W,121120,275,,,,
$GPGGA,183333.00,4100.19475,N,07354.39004,W,121120,275,,,,
$GPGGA,183334.00,4100.19474,N,07354.39003,W,121120,275,,,,
$GPGGA,183335.00,4100.19472,N,07354.39003,W,121120,275,,,,
$GPGGA,183336.00,4100.19470,N,07354.39004,W,121120,275,,,,
$GPGGA,183337.00,4100.19468,N,07354.39007,W,121120,275,,,,
$GPGGA,183338.00,4100.19468,N,07354.39008,W,121120,274,,,,
$GPGGA,183339.00,4100.19466,N,07354.39008,W,121120,274,,,,
$GPGGA,183340.00,4100.19465,N,07354.39007,W,121120,274,,,,
$GPGGA,183341.00,4100.19464,N,07354.39007,W,121120,274,,,,
$GPGGA,183342.00,4100.19464,N,07354.39006,W,121120,274,,,,
$GPGGA,183343.00,4100.19463,N,07354.39007,W,121120,274,,,,
$GPGGA,183344.00,4100.19461,N,07354.39007,W,121120,274,,,,
$GPGGA,183345.00,4100.19460,N,07354.39006,W,121120,274,,,,
$GPGGA,183346.00,4100.19457,N,07354.39006,W,121120,274,,,,
$GPGGA,183347.00,4100.19453,N,07354.39005,W,121120,274,,,,
$GPGGA,183348.00,4100.19452,N,07354.39004,W,121120,274,,,,
$GPGGA,183349.00,4100.19448,N,07354.39003,W,121120,274,,,,
$GPGGA,183350.00,4100.19447,N,07354.39003,W,121120,274,,,,
$GPGGA,183351.00,4100.19446,N,07354.39003,W,121120,274,,,,
$GPGGA,183352.00,4100.19444,N,07354.39000,W,121120,274,,,,
$GPGGA,183353.00,4100.19443,N,07354.38998,W,121120,274,,,,
$GPGGA,183354.00,4100.19442,N,07354.38996,W,121120,273,,,,
$GPGGA,183355.00,4100.19440,N,07354.38994,W,121120,273,,,,
$GPGGA,183356.00,4100.19438,N,07354.38992,W,121120,273,,,,
$GPGGA,183357.00,4100.19437,N,07354.38993,W,121120,273,,,,
$GPGGA,183358.00,4100.19436,N,07354.38994,W,121120,273,,,,
$GPGGA,183359.00,4100.19436,N,07354.38996,W,121120,273,,,,
$GPGGA,183400.00,4100.19434,N,07354.38998,W,121120,273,,,,
$GPGGA,183401.00,4100.19433,N,07354.39000,W,121120,273,,,,
$GPGGA,183402.00,4100.19432,N,07354.39004,W,121120,273,,,,
$GPGGA,183403.00,4100.19430,N,07354.39009,W,121120,273,,,,
$GPGGA,183404.00,4100.19431,N,07354.39011,W,121120,273,,,,
$GPGGA,183405.00,4100.19429,N,07354.39012,W,121120,273,,,,
$GPGGA,183406.00,4100.19428,N,07354.39013,W,121120,273,,,,
$GPGGA,183407.00,4100.19424,N,07354.39013,W,121120,273,,,,
$GPGGA,183408.00,4100.19419,N,07354.39012,W,121120,273,,,,
$GPGGA,183409.00,4100.19418,N,07354.39011,W,121120,273,,,,
$GPGGA,183410.00,4100.19416,N,07354.39008,W,121120,273,,,,
$GPGGA,183411.00,4100.19413,N,07354.39004,W,121120,273,,,,
$GPGGA,183412.00,4100.19407,N,07354.39003,W,121120,274,,,,
$GPGGA,183413.00,4100.19404,N,07354.39002,W,121120,274,,,,
$GPGGA,183414.00,4100.19402,N,07354.39002,W,121120,274,,,,
$GPGGA,183415.00,4100.19400,N,07354.39003,W,121120,274,,,,
$GPGGA,183416.00,4100.19399,N,07354.39004,W,121120,274,,,,
$GPGGA,183417.00,4100.19395,N,07354.39006,W,121120,4294967295,,,,
$GPGGA,183419.00,4100.19385,N,07354.39013,W,121120,274,,,,
$GPGGA,183420.00,4100.19379,N,07354.39014,W,121120,274,,,,
$GPGGA,183421.00,4100.19376,N,07354.39015,W,121120,274,,,,
$GPGGA,183422.00,4100.19375,N,07354.39021,W,121120,274,,,,
$GPGGA,183423.00,4100.19374,N,07354.39027,W,121120,274,,,,
$GPGGA,183424.00,4100.19373,N,07354.39035,W,121120,274,,,,
$GPGGA,183425.00,4100.19372,N,07354.39039,W,121120,274,,,,
$GPGGA,183426.00,4100.19369,N,07354.39042,W,121120,274,,,,
$GPGGA,183427.00,4100.19369,N,07354.39047,W,121120,274,,,,
$GPGGA,183428.00,4100.19366,N,07354.39052,W,121120,275,,,,
$GPGGA,183429.00,4100.19364,N,07354.39056,W,121120,275,,,,
$GPGGA,183430.00,4100.19363,N,07354.39059,W,121120,275,,,,
$GPGGA,183431.00,4100.19362,N,07354.39061,W,121120,275,,,,
$GPGGA,183432.00,4100.19364,N,07354.39065,W,121120,275,,,,
$GPGGA,183433.00,4100.19367,N,07354.39068,W,121120,275,,,,
$GPGGA,183434.00,4100.19370,N,07354.39072,W,121120,275,,,,
$GPGGA,183435.00,4100.19373,N,07354.39075,W,121120,275,,,,
$GPGGA,183436.00,4100.19375,N,07354.39079,W,121120,275,,,,
$GPGGA,183437.00,4100.19377,N,07354.39082,W,121120,275,,,,
$GPGGA,183438.00,4100.19377,N,07354.39083,W,121120,275,,,,
$GPGGA,183439.00,4100.19378,N,07354.39087,W,121120,275,,,,
$GPGGA,183440.00,4100.19379,N,07354.39091,W,121120,275,,,,
$GPGGA,183441.00,4100.19380,N,07354.39093,W,121120,275,,,,
$GPGGA,183442.00,4100.19384,N,07354.39096,W,121120,275,,,,
$GPGGA,183443.00,4100.19386,N,07354.39099,W,121120,275,,,,
$GPGGA,183444.00,4100.19388,N,07354.39102,W,121120,276,,,,
$GPGGA,183445.00,4100.19392,N,07354.39105,W,121120,276,,,,
$GPGGA,183446.00,4100.19395,N,07354.39110,W,121120,275,,,,
$GPGGA,183447.00,4100.19399,N,07354.39117,W,121120,275,,,,
$GPGGA,183448.00,4100.19405,N,07354.39125,W,121120,275,,,,
$GPGGA,183449.00,4100.19412,N,07354.39131,W,121120,275,,,,
$GPGGA,183450.00,4100.19416,N,07354.39138,W,121120,275,,,,
$GPGGA,183451.00,4100.19419,N,07354.39143,W,121120,275,,,,
$GPGGA,183452.00,4100.19422,N,07354.39147,W,121120,275,,,,
$GPGGA,183453.00,4100.19422,N,07354.39149,W,121120,275,,,,
$GPGGA,183454.00,4100.19422,N,07354.39150,W,121120,275,,,,
$GPGGA,183455.00,4100.19427,N,07354.39154,W,121120,275,,,,
$GPGGA,183456.00,4100.19433,N,07354.39162,W,121120,275,,,,
$GPGGA,183457.00,4100.19438,N,07354.39167,W,121120,275,,,,
$GPGGA,183458.00,4100.19441,N,07354.39171,W,121120,276,,,,
$GPGGA,183459.00,4100.19444,N,07354.39173,W,121120,276,,,,
$GPGGA,183500.00,4100.19446,N,07354.39177,W,121120,276,,,,
$GPGGA,183501.00,4100.19448,N,07354.39180,W,121120,276,,,,
$GPGGA,183502.00,4100.19451,N,07354.39182,W,121120,276,,,,
$GPGGA,183503.00,4100.19454,N,07354.39184,W,121120,276,,,,
$GPGGA,183504.00,4100.19455,N,07354.39185,W,121120,276,,,,
$GPGGA,183505.00,4100.19455,N,07354.39186,W,121120,276,,,,
$GPGGA,183506.00,4100.19456,N,07354.39189,W,121120,276,,,,
$GPGGA,183507.00,4100.19458,N,07354.39192,W,121120,276,,,,
$GPGGA,183508.00,4100.19462,N,07354.39197,W,121120,276,,,,
$GPGGA,183509.00,4100.19467,N,07354.39201,W,121120,276,,,,
$GPGGA,183510.00,4100.19472,N,07354.39206,W,121120,276,,,,
$GPGGA,183511.00,4100.19474,N,07354.39209,W,121120,276,,,,
$GPGGA,183512.00,4100.19480,N,07354.39212,W,121120,276,,,,
$GPGGA,183513.00,4100.19482,N,07354.39213,W,121120,276,,,,
$GPGGA,183514.00,4100.19485,N,07354.39217,W,121120,276,,,,
$GPGGA,183515.00,4100.19490,N,07354.39219,W,121120,276,,,,
$GPGGA,183516.00,4100.19492,N,07354.39222,W,121120,276,,,,
$GPGGA,183517.00,4100.19495,N,07354.39223,W,121120,276,,,,
$GPGGA,183518.00,4100.19497,N,07354.39224,W,121120,276,,,,
$GPGGA,183519.00,4100.19499,N,07354.39224,W,121120,276,,,,
$GPGGA,183520.00,4100.19500,N,07354.39224,W,121120,276,,,,
$GPGGA,183521.00,4100.19499,N,07354.39222,W,121120,276,,,,
$GPGGA,183522.00,4100.19499,N,07354.39217,W,121120,276,,,,
$GPGGA,183523.00,4100.19499,N,07354.39214,W,121120,276,,,,
$GPGGA,183524.00,4100.19498,N,07354.39210,W,121120,276,,,,
$GPGGA,183525.00,4100.19495,N,07354.39207,W,121120,276,,,,
$GPGGA,183526.00,4100.19493,N,07354.39203,W,121120,276,,,,
$GPGGA,183527.00,4100.19490,N,07354.39199,W,121120,276,,,,
$GPGGA,183528.00,4100.19488,N,07354.39196,W,121120,276,,,,
$GPGGA,183529.00,4100.19486,N,07354.39194,W,121120,276,,,,
$GPGGA,183530.00,4100.19484,N,07354.39193,W,121120,276,,,,
$GPGGA,183531.00,4100.19481,N,07354.39194,W,121120,276,,,,
$GPGGA,183532.00,4100.19479,N,07354.39193,W,121120,276,,,,
$GPGGA,183533.00,4100.19476,N,07354.39194,W,121120,276,,,,
$GPGGA,183534.00,4100.19473,N,07354.39198,W,121120,276,,,,
$GPGGA,183535.00,4100.19470,N,07354.39201,W,121120,276,,,,
$GPGGA,183536.00,4100.19468,N,07354.39203,W,121120,275,,,,
$GPGGA,183537.00,4100.19465,N,07354.39206,W,121120,275,,,,
$GPGGA,183538.00,4100.19463,N,07354.39208,W,121120,275,,,,
$GPGGA,183539.00,4100.19459,N,07354.39209,W,121120,275,,,,
$GPGGA,183540.00,4100.19456,N,07354.39209,W,121120,275,,,,
$GPGGA,183541.00,4100.19454,N,07354.39207,W,121120,275,,,,
$GPGGA,183542.00,4100.19452,N,07354.39205,W,121120,274,,,,
$GPGGA,183543.00,4100.19449,N,07354.39206,W,121120,274,,,,
$GPGGA,183544.00,4100.19446,N,07354.39209,W,121120,274,,,,
$GPGGA,183545.00,4100.19442,N,07354.39214,W,121120,274,,,,
$GPGGA,183546.00,4100.19441,N,07354.39218,W,121120,274,,,,
$GPGGA,183547.00,4100.19441,N,07354.39221,W,121120,274,,,,
$GPGGA,183548.00,4100.19442,N,07354.39225,W,121120,274,,,,
$GPGGA,183549.00,4100.19443,N,07354.39231,W,121120,274,,,,
$GPGGA,183550.00,4100.19445,N,07354.39236,W,121120,274,,,,
$GPGGA,183551.00,4100.19446,N,07354.39239,W,121120,274,,,,
$GPGGA,183552.00,4100.19448,N,07354.39243,W,121120,274,,,,
$GPGGA,183553.00,4100.19448,N,07354.39246,W,121120,274,,,,
$GPGGA,183554.00,4100.19450,N,07354.39248,W,121120,274,,,,
$GPGGA,183555.00,4100.19453,N,07354.39248,W,121120,274,,,,
$GPGGA,183556.00,4100.19454,N,07354.39246,W,121120,274,,,,
$GPGGA,183557.00,4100.19455,N,07354.39243,W,121120,274,,,,
$GPGGA,183558.00,4100.19455,N,07354.39239,W,121120,274,,,,
$GPGGA,183559.00,4100.19456,N,07354.39235,W,121120,274,,,,
$GPGGA,183600.00,4100.19457,N,07354.39233,W,121120,274,,,,
$GPGGA,183601.00,4100.19457,N,07354.39228,W,121120,274,,,,
$GPGGA,183602.00,4100.19457,N,07354.39226,W,121120,274,,,,
$GPGGA,183603.00,4100.19457,N,07354.39222,W,121120,274,,,,
$GPGGA,183604.00,4100.19459,N,07354.39221,W,121120,274,,,,
$GPGGA,183605.00,4100.19461,N,07354.39221,W,121120,274,,,,
$GPGGA,183606.00,4100.19460,N,07354.39219,W,121120,273,,,,
$GPGGA,183607.00,4100.19460,N,07354.39218,W,121120,273,,,,
$GPGGA,183608.00,4100.19461,N,07354.39215,W,121120,273,,,,
$GPGGA,183609.00,4100.19462,N,07354.39212,W,121120,273,,,,
$GPGGA,183610.00,4100.19462,N,07354.39208,W,121120,273,,,,
$GPGGA,183611.00,4100.19462,N,07354.39203,W,121120,273,,,,
$GPGGA,183612.00,4100.19462,N,07354.39200,W,121120,273,,,,
$GPGGA,183613.00,4100.19462,N,07354.39196,W,121120,273,,,,
$GPGGA,183614.00,4100.19462,N,07354.39192,W,121120,273,,,,
$GPGGA,183615.00,4100.19461,N,07354.39187,W,121120,273,,,,
$GPGGA,183616.00,4100.19460,N,07354.39182,W,121120,273,,,,
$GPGGA,183617.00,4100.19459,N,07354.39179,W,121120,273,,,,
$GPGGA,183618.00,4100.19459,N,07354.39174,W,121120,273,,,,
$GPGGA,183619.00,4100.19458,N,07354.39168,W,121120,273,,,,
$GPGGA,183620.00,4100.19455,N,07354.39159,W,121120,273,,,,
$GPGGA,183621.00,4100.19453,N,07354.39151,W,121120,273,,,,
$GPGGA,183622.00,4100.19450,N,07354.39139,W,121120,272,,,,
$GPGGA,183623.00,4100.19449,N,07354.39125,W,121120,272,,,,
$GPGGA,183624.00,4100.19448,N,07354.39116,W,121120,272,,,,
$GPGGA,183625.00,4100.19447,N,07354.39111,W,121120,272,,,,
$GPGGA,183626.00,4100.19445,N,07354.39106,W,121120,272,,,,
$GPGGA,183627.00,4100.19445,N,07354.39101,W,121120,272,,,,
$GPGGA,183628.00,4100.19444,N,07354.39099,W,121120,271,,,,
$GPGGA,183629.00,4100.19444,N,07354.39098,W,121120,271,,,,
$GPGGA,183630.00,4100.19446,N,07354.39098,W,121120,271,,,,
$GPGGA,183631.00,4100.19447,N,07354.39098,W,121120,271,,,,
$GPGGA,183632.00,4100.19449,N,07354.39099,W,121120,271,,,,
$GPGGA,183633.00,4100.19451,N,07354.39099,W,121120,271,,,,
$GPGGA,183634.00,4100.19453,N,07354.39097,W,121120,270,,,,
$GPGGA,183635.00,4100.19455,N,07354.39093,W,121120,270,,,,
$GPGGA,183636.00,4100.19457,N,07354.39090,W,121120,269,,,,
$GPGGA,183637.00,4100.19458,N,07354.39084,W,121120,269,,,,
$GPGGA,183638.00,4100.19460,N,07354.39079,W,121120,269,,,,
$GPGGA,183639.00,4100.19462,N,07354.39076,W,121120,269,,,,
$GPGGA,183640.00,4100.19466,N,07354.39071,W,121120,268,,,,
$GPGGA,183641.00,4100.19470,N,07354.39066,W,121120,268,,,,
$GPGGA,183642.00,4100.19472,N,07354.39063,W,121120,268,,,,
$GPGGA,183643.00,4100.19476,N,07354.39059,W,121120,268,,,,
$GPGGA,183644.00,4100.19481,N,07354.39056,W,121120,268,,,,
$GPGGA,183645.00,4100.19485,N,07354.39053,W,121120,268,,,,
$GPGGA,183646.00,4100.19486,N,07354.39049,W,121120,267,,,,
$GPGGA,183647.00,4100.19490,N,07354.39045,W,121120,267,,,,
$GPGGA,183648.00,4100.19493,N,07354.39041,W,121120,267,,,,
$GPGGA,183649.00,4100.19495,N,07354.39037,W,121120,267,,,,
$GPGGA,183650.00,4100.19496,N,07354.39034,W,121120,267,,,,
$GPGGA,183651.00,4100.19498,N,07354.39031,W,121120,267,,,,
$GPGGA,183652.00,4100.19502,N,07354.39029,W,121120,267,,,,
$GPGGA,183653.00,4100.19506,N,07354.39029,W,121120,267,,,,
$GPGGA,183654.00,4100.19508,N,07354.39028,W,121120,267,,,,
$GPGGA,183655.00,4100.19512,N,07354.39028,W,121120,267,,,,
$GPGGA,183656.00,4100.19516,N,07354.39025,W,121120,267,,,,
$GPGGA,183657.00,4100.19519,N,07354.39026,W,121120,267,,,,
$GPGGA,183658.00,4100.19523,N,07354.39025,W,121120,267,,,,
$GPGGA,183659.00,4100.19527,N,07354.39028,W,121120,267,,,,
$GPGGA,183700.00,4100.19533,N,07354.39031,W,121120,266,,,,
$GPGGA,183701.00,4100.19539,N,07354.39037,W,121120,266,,,,
$GPGGA,183702.00,4100.19545,N,07354.39042,W,121120,267,,,,
$GPGGA,183703.00,4100.19550,N,07354.39045,W,121120,267,,,,
$GPGGA,183704.00,4100.19555,N,07354.39048,W,121120,267,,,,
$GPGGA,183705.00,4100.19560,N,07354.39053,W,121120,267,,,,
$GPGGA,183706.00,4100.19564,N,07354.39055,W,121120,267,,,,
$GPGGA,183707.00,4100.19568,N,07354.39057,W,121120,267,,,,
$GPGGA,183708.00,4100.19572,N,07354.39058,W,121120,267,,,,
$GPGGA,183709.00,4100.19577,N,07354.39057,W,121120,267,,,,
$GPGGA,183710.00,4100.19580,N,07354.39056,W,121120,266,,,,
$GPGGA,183711.00,4100.19582,N,07354.39052,W,121120,266,,,,
$GPGGA,183712.00,4100.19585,N,07354.39048,W,121120,267,,,,
$GPGGA,183713.00,4100.19589,N,07354.39043,W,121120,267,,,,
$GPGGA,183714.00,4100.19592,N,07354.39040,W,121120,267,,,,
$GPGGA,183715.00,4100.19596,N,07354.39038,W,121120,267,,,,
$GPGGA,183716.00,4100.19600,N,07354.39037,W,121120,267,,,,
$GPGGA,183717.00,4100.19602,N,07354.39035,W,121120,267,,,,
$GPGGA,183718.00,4100.19605,N,07354.39037,W,121120,266,,,,
$GPGGA,183719.00,4100.19609,N,07354.39038,W,121120,266,,,,
$GPGGA,183720.00,4100.19612,N,07354.39036,W,121120,266,,,,
$GPGGA,183721.00,4100.19615,N,07354.39034,W,121120,266,,,,
$GPGGA,183722.00,4100.19617,N,07354.39031,W,121120,266,,,,
$GPGGA,183723.00,4100.19619,N,07354.39025,W,121120,266,,,,
$GPGGA,183724.00,4100.19620,N,07354.39018,W,121120,266,,,,
$GPGGA,183725.00,4100.19622,N,07354.39013,W,121120,266,,,,
$GPGGA,183726.00,4100.19625,N,07354.39007,W,121120,266,,,,
$GPGGA,183727.00,4100.19627,N,07354.39002,W,121120,266,,,,
$GPGGA,183728.00,4100.19627,N,07354.39003,W,121120,266,,,,
$GPGGA,183729.00,4100.19628,N,07354.39006,W,121120,266,,,,
$GPGGA,183730.00,4100.19630,N,07354.39007,W,121120,266,,,,
$GPGGA,183731.00,4100.19632,N,07354.39006,W,121120,266,,,,
$GPGGA,183732.00,4100.19636,N,07354.39006,W,121120,266,,,,
$GPGGA,183733.00,4100.19639,N,07354.39010,W,121120,266,,,,
$GPGGA,183734.00,4100.19642,N,07354.39009,W,121120,266,,,,
$GPGGA,183735.00,4100.19645,N,07354.39009,W,121120,266,,,,
$GPGGA,183736.00,4100.19646,N,07354.39008,W,121120,267,,,,
$GPGGA,183737.00,4100.19648,N,07354.39005,W,121120,267,,,,
$GPGGA,183738.00,4100.19648,N,07354.39003,W,121120,267,,,,
$GPGGA,183739.00,4100.19648,N,07354.38997,W,121120,267,,,,
$GPGGA,183740.00,4100.19649,N,07354.38995,W,121120,267,,,,
$GPGGA,183741.00,4100.19649,N,07354.38996,W,121120,267,,,,
$GPGGA,183742.00,4100.19651,N,07354.38997,W,121120,267,,,,
$GPGGA,183743.00,4100.19654,N,07354.38997,W,121120,267,,,,
$GPGGA,183744.00,4100.19658,N,07354.38996,W,121120,267,,,,
$GPGGA,183745.00,4100.19660,N,07354.38995,W,121120,267,,,,
$GPGGA,183746.00,4100.19661,N,07354.38991,W,121120,267,,,,
$GPGGA,183747.00,4100.19661,N,07354.38992,W,121120,267,,,,
$GPGGA,183748.00,4100.19662,N,07354.38993,W,121120,267,,,,
$GPGGA,183749.00,4100.19663,N,07354.38991,W,121120,267,,,,
$GPGGA,183750.00,4100.19662,N,07354.38990,W,121120,267,,,,
$GPGGA,183751.00,4100.19663,N,07354.38990,W,121120,267,,,,
$GPGGA,183752.00,4100.19663,N,07354.38989,W,121120,267,,,,
$GPGGA,183753.00,4100.19664,N,07354.38987,W,121120,267,,,,
$GPGGA,183754.00,4100.19666,N,07354.38988,W,121120,267,,,,
$GPGGA,183755.00,4100.19670,N,07354.38991,W,121120,267,,,,
$GPGGA,183756.00,4100.19670,N,07354.38996,W,121120,268,,,,
$GPGGA,183757.00,4100.19671,N,07354.38999,W,121120,268,,,,
$GPGGA,183758.00,4100.19672,N,07354.39002,W,121120,268,,,,
$GPGGA,183759.00,4100.19673,N,07354.39005,W,121120,268,,,,
$GPGGA,183800.00,4100.19675,N,07354.39007,W,121120,268,,,,
$GPGGA,183801.00,4100.19676,N,07354.39010,W,121120,268,,,,
$GPGGA,183802.00,4100.19676,N,07354.39012,W,121120,267,,,,
$GPGGA,183803.00,4100.19677,N,07354.39013,W,121120,267,,,,
$GPGGA,183804.00,4100.19677,N,07354.39014,W,121120,267,,,,
$GPGGA,183805.00,4100.19677,N,07354.39016,W,121120,267,,,,
$GPGGA,183806.00,4100.19676,N,07354.39016,W,121120,267,,,,
$GPGGA,183807.00,4100.19674,N,07354.39011,W,121120,267,,,,
$GPGGA,183808.00,4100.19671,N,07354.39008,W,121120,267,,,,
$GPGGA,183809.00,4100.19668,N,07354.39006,W,121120,267,,,,
$GPGGA,183810.00,4100.19665,N,07354.39005,W,121120,267,,,,
$GPGGA,183811.00,4100.19662,N,07354.39004,W,121120,267,,,,
$GPGGA,183812.00,4100.19659,N,07354.39001,W,121120,267,,,,
$GPGGA,183813.00,4100.19655,N,07354.38996,W,121120,267,,,,
$GPGGA,183814.00,4100.19652,N,07354.38991,W,121120,267,,,,
$GPGGA,183815.00,4100.19647,N,07354.38986,W,121120,267,,,,
$GPGGA,183816.00,4100.19644,N,07354.38982,W,121120,266,,,,
$GPGGA,183817.00,4100.19640,N,07354.38979,W,121120,266,,,,
$GPGGA,183818.00,4100.19638,N,07354.38979,W,121120,266,,,,
$GPGGA,183819.00,4100.19636,N,07354.38978,W,121120,266,,,,
$GPGGA,183820.00,4100.19636,N,07354.38977,W,121120,266,,,,
$GPGGA,183821.00,4100.19634,N,07354.38978,W,121120,266,,,,
$GPGGA,183822.00,4100.19634,N,07354.38981,W,121120,266,,,,
$GPGGA,183823.00,4100.19633,N,07354.38984,W,121120,266,,,,
$GPGGA,183824.00,4100.19633,N,07354.38987,W,121120,266,,,,
$GPGGA,183825.00,4100.19632,N,07354.38989,W,121120,266,,,,
$GPGGA,183826.00,4100.19632,N,07354.38990,W,121120,266,,,,
$GPGGA,183827.00,4100.19633,N,07354.38991,W,121120,266,,,,
$GPGGA,183828.00,4100.19632,N,07354.38992,W,121120,266,,,,
$GPGGA,183829.00,4100.19632,N,07354.38992,W,121120,266,,,,
$GPGGA,183830.00,4100.19632,N,07354.38993,W,121120,265,,,,
$GPGGA,183831.00,4100.19635,N,07354.38996,W,121120,265,,,,
$GPGGA,183832.00,4100.19639,N,07354.39002,W,121120,265,,,,
$GPGGA,183833.00,4100.19641,N,07354.39005,W,121120,265,,,,
$GPGGA,183834.00,4100.19644,N,07354.39008,W,121120,265,,,,
$GPGGA,183835.00,4100.19648,N,07354.39012,W,121120,265,,,,
$GPGGA,183836.00,4100.19651,N,07354.39012,W,121120,265,,,,
$GPGGA,183837.00,4100.19652,N,07354.39008,W,121120,265,,,,
$GPGGA,183838.00,4100.19654,N,07354.39006,W,121120,265,,,,
$GPGGA,183839.00,4100.19656,N,07354.39006,W,121120,264,,,,
$GPGGA,183840.00,4100.19660,N,07354.39002,W,121120,264,,,,
$GPGGA,183841.00,4100.19661,N,07354.38999,W,121120,264,,,,
$GPGGA,183842.00,4100.19661,N,07354.38993,W,121120,264,,,,
$GPGGA,183843.00,4100.19661,N,07354.38985,W,121120,264,,,,
$GPGGA,183844.00,4100.19659,N,07354.38980,W,121120,264,,,,
$GPGGA,183845.00,4100.19657,N,07354.38977,W,121120,264,,,,
$GPGGA,183846.00,4100.19656,N,07354.38973,W,121120,264,,,,
$GPGGA,183847.00,4100.19655,N,07354.38971,W,121120,264,,,,
$GPGGA,183848.00,4100.19654,N,07354.38977,W,121120,264,,,,
$GPGGA,183849.00,4100.19652,N,07354.38983,W,121120,264,,,,
$GPGGA,183850.00,4100.19651,N,07354.38992,W,121120,264,,,,
$GPGGA,183851.00,4100.19651,N,07354.39002,W,121120,264,,,,
$GPGGA,183852.00,4100.19647,N,07354.39010,W,121120,264,,,,
$GPGGA,183853.00,4100.19644,N,07354.39018,W,121120,264,,,,
$GPGGA,183854.00,4100.19641,N,07354.39026,W,121120,264,,,,
$GPGGA,183855.00,4100.19636,N,07354.39029,W,121120,264,,,,
$GPGGA,183856.00,4100.19628,N,07354.39031,W,121120,264,,,,
$GPGGA,183857.00,4100.19623,N,07354.39034,W,121120,264,,,,
$GPGGA,183858.00,4100.19618,N,07354.39036,W,121120,264,,,,
$GPGGA,183859.00,4100.19615,N,07354.39038,W,121120,264,,,,
$GPGGA,183900.00,4100.19611,N,07354.39041,W,121120,264,,,,
$GPGGA,183901.00,4100.19609,N,07354.39045,W,121120,264,,,,
$GPGGA,183902.00,4100.19605,N,07354.39050,W,121120,264,,,,
$GPGGA,183903.00,4100.19603,N,07354.39056,W,121120,264,,,,
$GPGGA,183904.00,4100.19603,N,07354.39057,W,121120,264,,,,
$GPGGA,183905.00,4100.19599,N,07354.39055,W,121120,264,,,,
$GPGGA,183906.00,4100.19595,N,07354.39059,W,121120,264,,,,
$GPGGA,183907.00,4100.19594,N,07354.39058,W,121120,264,,,,
$GPGGA,183908.00,4100.19591,N,07354.39066,W,121120,264,,,,
$GPGGA,183909.00,4100.19589,N,07354.39073,W,121120,264,,,,
$GPGGA,183910.00,4100.19588,N,07354.39078,W,121120,264,,,,
$GPGGA,183911.00,4100.19587,N,07354.39086,W,121120,263,,,,
$GPGGA,183912.00,4100.19586,N,07354.39093,W,121120,263,,,,
$GPGGA,183913.00,4100.19588,N,07354.39099,W,121120,263,,,,
$GPGGA,183914.00,4100.19590,N,07354.39101,W,121120,263,,,,
$GPGGA,183915.00,4100.19589,N,07354.39104,W,121120,263,,,,
$GPGGA,183916.00,4100.19592,N,07354.39104,W,121120,263,,,,
$GPGGA,183917.00,4100.19592,N,07354.39107,W,121120,264,,,,
$GPGGA,183918.00,4100.19594,N,07354.39108,W,121120,264,,,,
$GPGGA,183919.00,4100.19594,N,07354.39109,W,121120,264,,,,
$GPGGA,183920.00,4100.19595,N,07354.39110,W,121120,264,,,,
$GPGGA,183921.00,4100.19597,N,07354.39109,W,121120,264,,,,
$GPGGA,183922.00,4100.19596,N,07354.39110,W,121120,264,,,,
$GPGGA,183923.00,4100.19595,N,07354.39109,W,121120,264,,,,
$GPGGA,183924.00,4100.19595,N,07354.39108,W,121120,264,,,,
$GPGGA,183925.00,4100.19595,N,07354.39108,W,121120,264,,,,
$GPGGA,183926.00,4100.19593,N,07354.39108,W,121120,264,,,,
$GPGGA,183927.00,4100.19592,N,07354.39110,W,121120,263,,,,
$GPGGA,183928.00,4100.19590,N,07354.39111,W,121120,263,,,,
$GPGGA,183929.00,4100.19589,N,07354.39111,W,121120,263,,,,
$GPGGA,183930.00,4100.19587,N,07354.39109,W,121120,263,,,,
$GPGGA,183931.00,4100.19584,N,07354.39104,W,121120,262,,,,
$GPGGA,183932.00,4100.19581,N,07354.39098,W,121120,262,,,,
$GPGGA,183933.00,4100.19578,N,07354.39090,W,121120,262,,,,
$GPGGA,183934.00,4100.19576,N,07354.39084,W,121120,262,,,,
$GPGGA,183935.00,4100.19573,N,07354.39078,W,121120,262,,,,
$GPGGA,183936.00,4100.19570,N,07354.39071,W,121120,262,,,,
$GPGGA,183937.00,4100.19568,N,07354.39063,W,121120,261,,,,
$GPGGA,183938.00,4100.19565,N,07354.39052,W,121120,261,,,,
$GPGGA,183939.00,4100.19564,N,07354.39044,W,121120,261,,,,
$GPGGA,183940.00,4100.19563,N,07354.39035,W,121120,261,,,,
$GPGGA,183941.00,4100.19560,N,07354.39027,W,121120,261,,,,
$GPGGA,183942.00,4100.19557,N,07354.39018,W,121120,261,,,,
$GPGGA,183943.00,4100.19556,N,07354.39007,W,121120,261,,,,
$GPGGA,183944.00,4100.19555,N,07354.39000,W,121120,261,,,,
$GPGGA,183945.00,4100.19553,N,07354.38992,W,121120,261,,,,
$GPGGA,183946.00,4100.19554,N,07354.38988,W,121120,261,,,,
$GPGGA,183947.00,4100.19554,N,07354.38986,W,121120,261,,,,
$GPGGA,183948.00,4100.19555,N,07354.38987,W,121120,261,,,,
$GPGGA,183949.00,4100.19557,N,07354.38990,W,121120,261,,,,
$GPGGA,183950.00,4100.19560,N,07354.38990,W,121120,261,,,,
$GPGGA,183951.00,4100.19562,N,07354.38989,W,121120,261,,,,
$GPGGA,183952.00,4100.19564,N,07354.38986,W,121120,261,,,,
$GPGGA,183953.00,4100.19565,N,07354.38984,W,121120,261,,,,
$GPGGA,183954.00,4100.19568,N,07354.38982,W,121120,261,,,,
$GPGGA,183955.00,4100.19569,N,07354.38981,W,121120,260,,,,
$GPGGA,183956.00,4100.19571,N,07354.38982,W,121120,260,,,,
$GPGGA,183957.00,4100.19575,N,07354.38982,W,121120,261,,,,
$GPGGA,183958.00,4100.19580,N,07354.38982,W,121120,261,,,,
$GPGGA,183959.00,4100.19584,N,07354.38984,W,121120,261,,,,
$GPGGA,184000.00,4100.19587,N,07354.38984,W,121120,261,,,,
$GPGGA,184001.00,4100.19591,N,07354.38983,W,121120,261,,,,
$GPGGA,184002.00,4100.19594,N,07354.38982,W,121120,261,,,,
$GPGGA,184003.00,4100.19596,N,07354.38980,W,121120,261,,,,
$GPGGA,184004.00,4100.19597,N,07354.38980,W,121120,261,,,,
$GPGGA,184005.00,4100.19600,N,07354.38979,W,121120,260,,,,
$GPGGA,184006.00,4100.19604,N,07354.38978,W,121120,260,,,,
$GPGGA,184007.00,4100.19610,N,07354.38973,W,121120,260,,,,
$GPGGA,184008.00,4100.19617,N,07354.38969,W,121120,260,,,,
$GPGGA,184009.00,4100.19622,N,07354.38964,W,121120,260,,,,
$GPGGA,184010.00,4100.19628,N,07354.38961,W,121120,260,,,,
$GPGGA,184011.00,4100.19634,N,07354.38960,W,121120,260,,,,
$GPGGA,184012.00,4100.19638,N,07354.38958,W,121120,260,,,,
$GPGGA,184013.00,4100.19643,N,07354.38956,W,121120,260,,,,
$GPGGA,184014.00,4100.19647,N,07354.38956,W,121120,260,,,,
$GPGGA,184015.00,4100.19649,N,07354.38954,W,121120,260,,,,
$GPGGA,184016.00,4100.19651,N,07354.38950,W,121120,260,,,,
$GPGGA,184017.00,4100.19652,N,07354.38948,W,121120,260,,,,
$GPGGA,184018.00,4100.19655,N,07354.38949,W,121120,260,,,,
$GPGGA,184019.00,4100.19657,N,07354.38950,W,121120,260,,,,
$GPGGA,184020.00,4100.19660,N,07354.38949,W,121120,260,,,,
$GPGGA,184021.00,4100.19663,N,07354.38948,W,121120,260,,,,
$GPGGA,184022.00,4100.19665,N,07354.38949,W,121120,260,,,,
$GPGGA,184023.00,4100.19668,N,07354.38954,W,121120,260,,,,
$GPGGA,184024.00,4100.19669,N,07354.38959,W,121120,260,,,,
$GPGGA,184025.00,4100.19670,N,07354.38962,W,121120,261,,,,
$GPGGA,184026.00,4100.19670,N,07354.38967,W,121120,261,,,,
$GPGGA,184027.00,4100.19670,N,07354.38970,W,121120,261,,,,
$GPGGA,184028.00,4100.19668,N,07354.38979,W,121120,261,,,,
$GPGGA,184029.00,4100.19667,N,07354.38986,W,121120,261,,,,
$GPGGA,184030.00,4100.19666,N,07354.38990,W,121120,261,,,,
$GPGGA,184031.00,4100.19664,N,07354.38998,W,121120,261,,,,
$GPGGA,184032.00,4100.19663,N,07354.39003,W,121120,261,,,,
$GPGGA,184033.00,4100.19660,N,07354.39012,W,121120,261,,,,
$GPGGA,184034.00,4100.19659,N,07354.39025,W,121120,261,,,,
$GPGGA,184035.00,4100.19657,N,07354.39036,W,121120,261,,,,
$GPGGA,184036.00,4100.19657,N,07354.39048,W,121120,261,,,,
$GPGGA,184037.00,4100.19657,N,07354.39057,W,121120,261,,,,
$GPGGA,184038.00,4100.19658,N,07354.39066,W,121120,261,,,,
$GPGGA,184039.00,4100.19658,N,07354.39074,W,121120,261,,,,
$GPGGA,184040.00,4100.19659,N,07354.39079,W,121120,261,,,,
$GPGGA,184041.00,4100.19659,N,07354.39085,W,121120,261,,,,
$GPGGA,184042.00,4100.19660,N,07354.39092,W,121120,261,,,,
$GPGGA,184043.00,4100.19661,N,07354.39100,W,121120,261,,,,
$GPGGA,184044.00,4100.19663,N,07354.39103,W,121120,261,,,,
$GPGGA,184045.00,4100.19665,N,07354.39109,W,121120,262,,,,
$GPGGA,184046.00,4100.19668,N,07354.39113,W,121120,262,,,,
$GPGGA,184047.00,4100.19669,N,07354.39117,W,121120,262,,,,
$GPGGA,184048.00,4100.19669,N,07354.39122,W,121120,262,,,,
$GPGGA,184049.00,4100.19668,N,07354.39129,W,121120,262,,,,
$GPGGA,184050.00,4100.19666,N,07354.39142,W,121120,262,,,,
$GPGGA,184051.00,4100.19665,N,07354.39152,W,121120,262,,,,
$GPGGA,184052.00,4100.19664,N,07354.39163,W,121120,262,,,,
$GPGGA,184053.00,4100.19664,N,07354.39172,W,121120,262,,,,
$GPGGA,184054.00,4100.19665,N,07354.39179,W,121120,262,,,,
$GPGGA,184055.00,4100.19664,N,07354.39183,W,121120,262,,,,
$GPGGA,184056.00,4100.19663,N,07354.39185,W,121120,262,,,,
$GPGGA,184057.00,4100.19661,N,07354.39187,W,121120,262,,,,
$GPGGA,184058.00,4100.19660,N,07354.39191,W,121120,262,,,,
$GPGGA,184059.00,4100.19659,N,07354.39196,W,121120,262,,,,
$GPGGA,184100.00,4100.19661,N,07354.39198,W,121120,262,,,,
$GPGGA,184101.00,4100.19661,N,07354.39203,W,121120,263,,,,
$GPGGA,184102.00,4100.19663,N,07354.39205,W,121120,263,,,,
$GPGGA,184103.00,4100.19665,N,07354.39209,W,121120,263,,,,
$GPGGA,184104.00,4100.19666,N,07354.39212,W,121120,263,,,,
$GPGGA,184105.00,4100.19667,N,07354.39214,W,121120,263,,,,
$GPGGA,184106.00,4100.19669,N,07354.39218,W,121120,263,,,,
$GPGGA,184107.00,4100.19668,N,07354.39224,W,121120,263,,,,
$GPGGA,184108.00,4100.19668,N,07354.39228,W,121120,263,,,,
$GPGGA,184109.00,4100.19669,N,07354.39232,W,121120,263,,,,
$GPGGA,184110.00,4100.19669,N,07354.39238,W,121120,263,,,,
$GPGGA,184111.00,4100.19671,N,07354.39243,W,121120,263,,,,
$GPGGA,184112.00,4100.19672,N,07354.39247,W,121120,263,,,,
$GPGGA,184113.00,4100.19674,N,07354.39247,W,121120,263,,,,
$GPGGA,184114.00,4100.19674,N,07354.39249,W,121120,263,,,,
